[
  {
    "name": "Angelinos (Woodstock) WBS",
    "w3wUrl": "https://what3words.com/instance.headlines.magical",
    "postalCode": "OX20 1ET",
    "region": "Thames Valley",
    "subRegion": "Thames Valley West",
    "assetCount": 3,
    "lat": 51.8482,
    "lng": -1.3527
  },
  {
    "name": "Arborfield Cross WBS",
    "w3wUrl": "https://what3words.com/firewall.impulsive.habit",
    "postalCode": "RG2 9PL",
    "region": "Thames Valley",
    "subRegion": "Thames Valley East",
    "assetCount": 2,
    "lat": 51.3894,
    "lng": -0.8864
  },
  {
    "name": "Upper Arncott WBS",
    "w3wUrl": "https://what3words.com/strongman.club.sharpens",
    "postalCode": "OX25 1AD",
    "region": "Thames Valley",
    "subRegion": "Thames Valley West",
    "assetCount": 3,
    "lat": 51.8681,
    "lng": -1.1077
  },
  {
    "name": "Forge Close (Ashendon) WBS",
    "w3wUrl": "https://what3words.com/maple.searcher.boarding",
    "postalCode": "HP18 0HJ",
    "region": "Thames Valley",
    "subRegion": "Thames Valley East",
    "assetCount": 2,
    "lat": 51.8122,
    "lng": -0.9864
  },
  {
    "name": "Ashford Common WTW",
    "w3wUrl": "https://what3words.com/fonts.turns.weep",
    "postalCode": "TW15 1RU",
    "region": "London",
    "subRegion": "North West London",
    "assetCount": 6,
    "lat": 51.4394,
    "lng": -0.4642
  },
  {
    "name": "Axford WTW",
    "w3wUrl": "https://what3words.com/attitudes.learn.squirted",
    "postalCode": "SN8 2HA",
    "region": "Thames Valley",
    "subRegion": "Thames Valley West",
    "assetCount": 3,
    "lat": 51.3926,
    "lng": -1.7168
  },
  {
    "name": "Barrow Hill TWRM Pump Out Shaft",
    "w3wUrl": "https://what3words.com/words.chart.frosted",
    "postalCode": "NW8",
    "region": "London",
    "subRegion": "Abstraction and Ring Main",
    "assetCount": 1,
    "lat": 51.5341,
    "lng": -0.1752
  },
  {
    "name": "Battersea WTW",
    "w3wUrl": "https://what3words.com/ankle.giant.print",
    "postalCode": "SW8 5BX",
    "region": "London",
    "subRegion": "South East London",
    "assetCount": 2,
    "lat": 51.4732,
    "lng": -0.1459
  },
  {
    "name": "Baunton WTW",
    "w3wUrl": "https://what3words.com/variously.deciding.purchaser",
    "postalCode": "GL7 7BQ",
    "region": "Thames Valley",
    "subRegion": "Thames Valley West",
    "assetCount": 4,
    "lat": 51.7394,
    "lng": -1.9764
  },
  {
    "name": "Bayswater (Barton) WBS",
    "w3wUrl": "https://what3words.com/rapid.smooth.judges",
    "postalCode": "OX3 9RZ",
    "region": "Thames Valley",
    "subRegion": "Thames Valley West",
    "assetCount": 2,
    "lat": 51.7485,
    "lng": -1.2042
  },
  {
    "name": "Bean C (School Lane) WBS",
    "w3wUrl": "https://what3words.com/lined.margin.stuck",
    "postalCode": "DA2 8BX",
    "region": "London",
    "subRegion": "South East London",
    "assetCount": 2,
    "lat": 51.3987,
    "lng": 0.2864
  },
  {
    "name": "Bearwood (Wokingham) RES & WBS",
    "w3wUrl": "https://what3words.com/sheets.robots.reef",
    "postalCode": "RG41 4SP",
    "region": "Thames Valley",
    "subRegion": "Thames Valley East",
    "assetCount": 3,
    "lat": 51.4121,
    "lng": -0.8564
  },
  {
    "name": "Bedwyn WTW",
    "w3wUrl": "https://what3words.com/limitless.pelt.wire",
    "postalCode": "SN8 3JF",
    "region": "Thames Valley",
    "subRegion": "Thames Valley West",
    "assetCount": 3,
    "lat": 51.3821,
    "lng": -1.5964
  },
  {
    "name": "Beenham WBS",
    "w3wUrl": "https://what3words.com/divorcing.products.abruptly",
    "postalCode": "RG7 5LS",
    "region": "Thames Valley",
    "subRegion": "Thames Valley East",
    "assetCount": 2,
    "lat": 51.4287,
    "lng": -1.1564
  },
  {
    "name": "Beggarsbush RES & WBS",
    "w3wUrl": "https://what3words.com/tributes.doghouse.fixed",
    "postalCode": "OX10 6PX",
    "region": "Thames Valley",
    "subRegion": "Thames Valley East",
    "assetCount": 2,
    "lat": 51.6287,
    "lng": -1.0564
  },
  {
    "name": "Bourne End WTW",
    "w3wUrl": "https://what3words.com/prom.square.create",
    "postalCode": "SL8 5NT",
    "region": "Thames Valley",
    "subRegion": "Thames Valley East",
    "assetCount": 9,
    "lat": 51.5894,
    "lng": -0.7042
  },
  {
    "name": "Bibury Farm RES & WBS",
    "w3wUrl": "https://what3words.com/ruffling.crumple.ethic",
    "postalCode": "GL7 5PB",
    "region": "Thames Valley",
    "subRegion": "Thames Valley West",
    "assetCount": 3,
    "lat": 51.7621,
    "lng": -1.8164
  },
  {
    "name": "Bishopsford Road (Morden) WBS",
    "w3wUrl": "https://w3w.co/alien.curve.skip",
    "postalCode": "SM4 6AX",
    "region": "London",
    "subRegion": "Abstraction and Ring Main",
    "assetCount": 2,
    "lat": 51.3987,
    "lng": -0.1864
  },
  {
    "name": "Bishopstone WBS",
    "w3wUrl": "https://what3words.com/return.coach.plausible",
    "postalCode": "HP17 8SL",
    "region": "Thames Valley",
    "subRegion": "Thames Valley East",
    "assetCount": 3,
    "lat": 51.7494,
    "lng": -0.8042
  },
  {
    "name": "Bishops Green WTW",
    "w3wUrl": "https://what3words.com/prominent.blank.kebabs",
    "postalCode": "RG20 4HS",
    "region": "Thames Valley",
    "subRegion": "Thames Valley East",
    "assetCount": 4,
    "lat": 51.3621,
    "lng": -1.2564
  },
  {
    "name": "Bledlow Ridge WBS",
    "w3wUrl": "https://what3words.com/interview.loom.shallower",
    "postalCode": "HP14 4BN",
    "region": "Thames Valley",
    "subRegion": "Thames Valley East",
    "assetCount": 2,
    "lat": 51.6821,
    "lng": -0.8264
  },
  {
    "name": "Bletchingdon WBS",
    "w3wUrl": "https://what3words.com/crabmeat.volcano.dwarves",
    "postalCode": "OX5 3HS",
    "region": "Thames Valley",
    "subRegion": "Thames Valley West",
    "assetCount": 1,
    "lat": 51.8394,
    "lng": -1.2964
  },
  {
    "name": "Bourton-on-the-Water WBS",
    "w3wUrl": "https://what3words.com/broached.sandpaper.kingpin",
    "postalCode": "GL54 2HN",
    "region": "Thames Valley",
    "subRegion": "Thames Valley West",
    "assetCount": 2,
    "lat": 51.8867,
    "lng": -1.7564
  },
  {
    "name": "Bowerdean (High Wycombe) RES & WBS",
    "w3wUrl": "https://what3words.com/late.apron.lower",
    "postalCode": "HP13 6XS",
    "region": "Thames Valley",
    "subRegion": "Thames Valley East",
    "assetCount": 3,
    "lat": 51.6267,
    "lng": -0.7542
  },
  {
    "name": "Bowsey Hill (Wargrave) RES & WBS",
    "w3wUrl": "https://what3words.com/safe.slipped.hurricane",
    "postalCode": "RG10 9XR",
    "region": "Thames Valley",
    "subRegion": "Thames Valley East",
    "assetCount": 2,
    "lat": 51.4894,
    "lng": -0.8564
  },
  {
    "name": "Bradfield Windmill WTW",
    "w3wUrl": "https://what3words.com/seagulls.crystal.concerned",
    "postalCode": "RG7 6DE",
    "region": "Thames Valley",
    "subRegion": "Thames Valley East",
    "assetCount": 2,
    "lat": 51.4394,
    "lng": -1.1264
  },
  {
    "name": "Brands Hatch (Farningham) WBS",
    "w3wUrl": "https://what3words.com/shock.weeks.blows",
    "postalCode": "DA4 0JT",
    "region": "London",
    "subRegion": "South East London",
    "assetCount": 2,
    "lat": 51.3621,
    "lng": 0.2564
  },
  {
    "name": "Brightwalton Tower & WBS",
    "w3wUrl": "https://what3words.com/given.scars.stung",
    "postalCode": "RG20 7DH",
    "region": "Thames Valley",
    "subRegion": "Thames Valley East",
    "assetCount": 2,
    "lat": 51.4621,
    "lng": -1.3264
  },
  {
    "name": "Brill WBS",
    "w3wUrl": "https://what3words.com/develops.generals.waged",
    "postalCode": "HP18 9UB",
    "region": "Thames Valley",
    "subRegion": "Thames Valley East",
    "assetCount": 2,
    "lat": 51.8194,
    "lng": -1.0464
  },
  {
    "name": "Brixton WTW; RES; TWRM Pump Out SFT",
    "w3wUrl": "https://what3words.com/develops.generals.waged",
    "postalCode": "SW2 1SB",
    "region": "London",
    "subRegion": "South East London",
    "assetCount": 14,
    "lat": 51.4621,
    "lng": -0.1164
  },
  {
    "name": "Brockhampton WBS",
    "w3wUrl": "https://what3words.com/cloak.drips.system",
    "postalCode": "GL54 5XL",
    "region": "Thames Valley",
    "subRegion": "Thames Valley West",
    "assetCount": 2,
    "lat": 51.9267,
    "lng": -1.8864
  },
  {
    "name": "Brookfield Lane (Cheshunt) WBS",
    "w3wUrl": "https://what3words.com/aura.tame.sparks",
    "postalCode": "EN8 0PS",
    "region": "London",
    "subRegion": "North East London",
    "assetCount": 4,
    "lat": 51.7021,
    "lng": -0.0364
  },
  {
    "name": "Burghfield RES & Tower & WBS",
    "w3wUrl": "https://what3words.com/stamp.unable.dish",
    "postalCode": "RG7 3QF",
    "region": "Thames Valley",
    "subRegion": "Thames Valley East",
    "assetCount": 5,
    "lat": 51.4121,
    "lng": -1.0464
  },
  {
    "name": "Burnt Hill (Yattendon) RES & WBS",
    "w3wUrl": "https://what3words.com/column.drill.swinging",
    "postalCode": "RG18 0NF",
    "region": "Thames Valley",
    "subRegion": "Thames Valley East",
    "assetCount": 2,
    "lat": 51.4621,
    "lng": -1.1864
  },
  {
    "name": "Buttermere WBS",
    "w3wUrl": "https://what3words.com/thinker.expiring.unique",
    "postalCode": "SN8 3RG",
    "region": "Thames Valley",
    "subRegion": "Thames Valley West",
    "assetCount": 3,
    "lat": 51.3894,
    "lng": -1.6564
  },
  {
    "name": "Chelsfield RES & WBS",
    "w3wUrl": "https://what3words.com/funded.homes.sing",
    "postalCode": "BR6 7QJ",
    "region": "London",
    "subRegion": "South East London",
    "assetCount": 2,
    "lat": 51.3394,
    "lng": 0.1164
  },
  {
    "name": "Chigwell WBS",
    "w3wUrl": "https://what3words.com/action.bound.also",
    "postalCode": "IG7 6NA",
    "region": "London",
    "subRegion": "North East London",
    "assetCount": 3,
    "lat": 51.6194,
    "lng": 0.0764
  },
  {
    "name": "Chilton WBS",
    "w3wUrl": "https://what3words.com/mount.ferried.pulses",
    "postalCode": "OX11 0SW",
    "region": "Thames Valley",
    "subRegion": "Thames Valley West",
    "assetCount": 2,
    "lat": 51.6021,
    "lng": -1.3264
  },
  {
    "name": "Childrey Warren WTW",
    "w3wUrl": "https://what3words.com/crash.narrating.overtime",
    "postalCode": "OX12 9LU",
    "region": "Thames Valley",
    "subRegion": "Thames Valley West",
    "assetCount": 5,
    "lat": 51.5894,
    "lng": -1.4564
  },
  {
    "name": "Chingford WTW",
    "w3wUrl": "https://what3words.com/books.supply.likes",
    "postalCode": "E4 7PX",
    "region": "London",
    "subRegion": "North East London",
    "assetCount": 7,
    "lat": 51.6267,
    "lng": -0.0164
  },
  {
    "name": "Chivery RES & WBS",
    "w3wUrl": "https://what3words.com/knitted.backpacks.winded",
    "postalCode": "HP23 6LD",
    "region": "Thames Valley",
    "subRegion": "Thames Valley East",
    "assetCount": 3,
    "lat": 51.8394,
    "lng": -0.6864
  },
  {
    "name": "Cleeve WTW",
    "w3wUrl": "https://what3words.com/handy.magnitude.pockets",
    "postalCode": "RG8 0BY",
    "region": "Thames Valley",
    "subRegion": "Thames Valley West",
    "assetCount": 8,
    "lat": 51.5267,
    "lng": -1.1264
  },
  {
    "name": "Cliveden 2 WBS",
    "w3wUrl": "https://what3words.com/occupy.bottom.public",
    "postalCode": "SL1 8NE",
    "region": "Thames Valley",
    "subRegion": "Thames Valley East",
    "assetCount": 2,
    "lat": 51.5021,
    "lng": -0.5864
  },
  {
    "name": "Cliveden Tower & WBS",
    "w3wUrl": "https://what3words.com/advice.lungs.mole",
    "postalCode": "SL6 0HW",
    "region": "Thames Valley",
    "subRegion": "Thames Valley East",
    "assetCount": 2,
    "lat": 51.5567,
    "lng": -0.6864
  },
  {
    "name": "Clyffe Pypard WBS",
    "w3wUrl": "https://what3words.com/installs.range.polished",
    "postalCode": "SN4 7PY",
    "region": "Thames Valley",
    "subRegion": "Thames Valley West",
    "assetCount": 2,
    "lat": 51.5394,
    "lng": -1.8564
  },
  {
    "name": "Cold Ash RES & WBS",
    "w3wUrl": "https://what3words.com/receiving.radiates.jetting",
    "postalCode": "RG18 9QQ",
    "region": "Thames Valley",
    "subRegion": "Thames Valley East",
    "assetCount": 2,
    "lat": 51.4394,
    "lng": -1.2564
  },
  {
    "name": "Apple Pie Hill (Compton) WBS",
    "w3wUrl": "https://what3words.com/classmate.comedy.scar",
    "postalCode": "RG20 6RD",
    "region": "Thames Valley",
    "subRegion": "Thames Valley East",
    "assetCount": 2,
    "lat": 51.4894,
    "lng": -1.3564
  },
  {
    "name": "Coppermills WTW",
    "w3wUrl": "https://what3words.com/rainy.meant.stack",
    "postalCode": "E17 7HE",
    "region": "London",
    "subRegion": "North East London",
    "assetCount": 12,
    "lat": 51.6021,
    "lng": -0.0164
  },
  {
    "name": "Crayford WTW",
    "w3wUrl": "https://what3words.com/lands.view.fancy",
    "postalCode": "DA1 3QA",
    "region": "London",
    "subRegion": "South East London",
    "assetCount": 2,
    "lat": 51.4494,
    "lng": 0.1764
  },
  {
    "name": "Cricklewood RES & WBS",
    "w3wUrl": "https://what3words.com/yoga.shady.bags",
    "postalCode": "NW2 6XD",
    "region": "London",
    "subRegion": "North East London",
    "assetCount": 4,
    "lat": 51.5567,
    "lng": -0.2164
  },
  {
    "name": "Crookham RES & WBS",
    "w3wUrl": "https://what3words.com/huts.bottled.edgy",
    "postalCode": "RG19 8DQ",
    "region": "Thames Valley",
    "subRegion": "Thames Valley East",
    "assetCount": 3,
    "lat": 51.3621,
    "lng": -1.1364
  },
  {
    "name": "Crystal Palace WBS",
    "w3wUrl": "https://what3words.com/cakes.fend.lines",
    "postalCode": "SE26 6SW",
    "region": "London",
    "subRegion": "South East London",
    "assetCount": 3,
    "lat": 51.4194,
    "lng": -0.0764
  },
  {
    "name": "Haileybury RES & WBS",
    "w3wUrl": "https://what3words.com/snacks.care.twig",
    "postalCode": "SG13 7PT",
    "region": "London",
    "subRegion": "North East London",
    "assetCount": 3,
    "lat": 51.8021,
    "lng": -0.0364
  },
  {
    "name": "Hambleden WTW",
    "w3wUrl": "https://what3words.com/talent.gives.texts",
    "postalCode": "RG9 6LU",
    "region": "Thames Valley",
    "subRegion": "Thames Valley East",
    "assetCount": 6,
    "lat": 51.5621,
    "lng": -0.8764
  },
  {
    "name": "Hampden WTW",
    "w3wUrl": "https://what3words.com/sadly.business.ombudsman",
    "postalCode": "HP16 9PR",
    "region": "Thames Valley",
    "subRegion": "Thames Valley East",
    "assetCount": 2,
    "lat": 51.7267,
    "lng": -0.7864
  },
  {
    "name": "Hampton WTW",
    "w3wUrl": "https://what3words.com/bend.poster.complains",
    "postalCode": "TW12 2ES",
    "region": "London",
    "subRegion": "South West London",
    "assetCount": 2,
    "lat": 51.4194,
    "lng": -0.3764
  },
  {
    "name": "Hardwick Hill (Banbury) WBS",
    "w3wUrl": "https://what3words.com/harmonica.organs.estimated",
    "postalCode": "OX16 1SU",
    "region": "Thames Valley",
    "subRegion": "Thames Valley West",
    "assetCount": 2,
    "lat": 52.0621,
    "lng": -1.3364
  },
  {
    "name": "Harpsden WTW",
    "w3wUrl": "https://what3words.com/enjoyable.aunts.roving",
    "postalCode": "RG9 3NZ",
    "region": "Thames Valley",
    "subRegion": "Thames Valley East",
    "assetCount": 3,
    "lat": 51.5267,
    "lng": -0.9364
  },
  {
    "name": "Hayes WBS",
    "w3wUrl": "https://what3words.com/votes.hoot.valley",
    "postalCode": "BR2 8HN",
    "region": "London",
    "subRegion": "South East London",
    "assetCount": 2,
    "lat": 51.3767,
    "lng": 0.0164
  },
  {
    "name": "Hedsor RES & WBS",
    "w3wUrl": "https://what3words.com/improving.little.tulip",
    "postalCode": "HP10 0JP",
    "region": "Thames Valley",
    "subRegion": "Thames Valley East",
    "assetCount": 2,
    "lat": 51.5567,
    "lng": -0.6364
  },
  {
    "name": "Hempton WBS",
    "w3wUrl": "https://what3words.com/staining.perused.good",
    "postalCode": "OX15 0UL",
    "region": "Thames Valley",
    "subRegion": "Thames Valley West",
    "assetCount": 1,
    "lat": 52.0267,
    "lng": -1.4864
  },
  {
    "name": "High Beech (Waltham Abbey) RES & WB",
    "w3wUrl": "https://what3words.com/teach.solve.earth",
    "postalCode": "IG10 4AE",
    "region": "London",
    "subRegion": "North East London",
    "assetCount": 3,
    "lat": 51.6621,
    "lng": 0.0364
  },
  {
    "name": "Hill Barn Road (Hazleton) WBS",
    "w3wUrl": "https://what3words.com/stars.glides.coil",
    "postalCode": "GL54 4DY",
    "region": "Thames Valley",
    "subRegion": "Thames Valley West",
    "assetCount": 2,
    "lat": 51.7894,
    "lng": -1.8364
  },
  {
    "name": "Holmbury WBS",
    "w3wUrl": "https://what3words.com/quit.long.spin",
    "postalCode": "RH5 6NS",
    "region": "Thames Valley",
    "subRegion": "Guildford & SWS",
    "assetCount": 2,
    "lat": 51.1767,
    "lng": -0.4364
  },
  {
    "name": "Hornsey WTW",
    "w3wUrl": "https://what3words.com/steer.pads.moss",
    "postalCode": "N8 7SL",
    "region": "London",
    "subRegion": "North East London",
    "assetCount": 3,
    "lat": 51.5894,
    "lng": -0.1164
  },
  {
    "name": "Horton Kirby WTW",
    "w3wUrl": "https://what3words.com/leaned.teams.vines",
    "postalCode": "DA4 9DA",
    "region": "London",
    "subRegion": "South East London",
    "assetCount": 2,
    "lat": 51.3894,
    "lng": 0.2764
  },
  {
    "name": "Hungerford WTW & RES",
    "w3wUrl": "https://what3words.com/notice.subway.variation",
    "postalCode": "RG17 0JX",
    "region": "Thames Valley",
    "subRegion": "Thames Valley East",
    "assetCount": 2,
    "lat": 51.4167,
    "lng": -1.5164
  },
  {
    "name": "Kangley Bridge WTW",
    "w3wUrl": "https://what3words.com/decay.other.foal",
    "postalCode": "SE26 5AQ",
    "region": "London",
    "subRegion": "South East London",
    "assetCount": 2,
    "lat": 51.4121,
    "lng": -0.0564
  },
  {
    "name": "Kempton Park WTW",
    "w3wUrl": "https://what3words.com/could.melt.bucket",
    "postalCode": "TW13 6XH",
    "region": "London",
    "subRegion": "North West London",
    "assetCount": 5,
    "lat": 51.4194,
    "lng": -0.4164
  },
  {
    "name": "Kew TWRM Pump Out Shaft",
    "w3wUrl": "https://what3words.com/suffice.worker.melon",
    "postalCode": "TW8 0EW",
    "region": "London",
    "subRegion": "Abstraction and Ring Main",
    "assetCount": 2,
    "lat": 51.4767,
    "lng": -0.2864
  },
  {
    "name": "Kilkenny WBS",
    "w3wUrl": "https://what3words.com/food.quitter.massing",
    "postalCode": "GL54 4LN",
    "region": "Thames Valley",
    "subRegion": "Thames Valley West",
    "assetCount": 2,
    "lat": 51.8767,
    "lng": -1.8164
  },
  {
    "name": "Kingshill (High Wycombe) WBS",
    "w3wUrl": "https://what3words.com/rock.wiping.expand",
    "postalCode": "HP13 5AU",
    "region": "Thames Valley",
    "subRegion": "Thames Valley East",
    "assetCount": 2,
    "lat": 51.6394,
    "lng": -0.7564
  },
  {
    "name": "Kingston Blount WBS",
    "w3wUrl": "https://what3words.com/ourselves.paces.cowboy",
    "postalCode": "OX39 4RS",
    "region": "Thames Valley",
    "subRegion": "Thames Valley East",
    "assetCount": 2,
    "lat": 51.6767,
    "lng": -0.9864
  },
  {
    "name": "Knockholt RES & WBS",
    "w3wUrl": "https://what3words.com/voices.animal.late",
    "postalCode": "TN14 7PJ",
    "region": "London",
    "subRegion": "South East London",
    "assetCount": 2,
    "lat": 51.3267,
    "lng": 0.1164
  },
  {
    "name": "Lane End (Dartford) WTW",
    "w3wUrl": "https://what3words.com/driven.boring.mull",
    "postalCode": "DA2 8DH",
    "region": "London",
    "subRegion": "South East London",
    "assetCount": 3,
    "lat": 51.4121,
    "lng": 0.2564
  },
  {
    "name": "Latton WTW",
    "w3wUrl": "https://what3words.com/adventure.nozzle.hang",
    "postalCode": "GL7 5QF",
    "region": "Thames Valley",
    "subRegion": "Thames Valley West",
    "assetCount": 6,
    "lat": 51.6894,
    "lng": -1.9764
  },
  {
    "name": "Long Crendon (Old) WBS",
    "w3wUrl": "https://what3words.com/companies.giggles.homes",
    "postalCode": "HP18 9AW",
    "region": "Thames Valley",
    "subRegion": "Thames Valley West",
    "assetCount": 3,
    "lat": 51.7767,
    "lng": -1.0164
  },
  {
    "name": "Leckhampstead WTW",
    "w3wUrl": "https://what3words.com/habits.terminal.grapevine",
    "postalCode": "RG16 8QT",
    "region": "Thames Valley",
    "subRegion": "Thames Valley East",
    "assetCount": 4,
    "lat": 51.4267,
    "lng": -1.3864
  },
  {
    "name": "Lewknor WBS",
    "w3wUrl": "https://what3words.com/baguette.anchors.polite",
    "postalCode": "OX9 5TT",
    "region": "Thames Valley",
    "subRegion": "Thames Valley East",
    "assetCount": 2,
    "lat": 51.6621,
    "lng": -0.9564
  },
  {
    "name": "Lockwood Shaft Raw Water PS",
    "w3wUrl": "https://what3words.com/jazz.using.ladder",
    "postalCode": "N17 9NF",
    "region": "London",
    "subRegion": "Abstraction and Ring Main",
    "assetCount": 3,
    "lat": 51.5894,
    "lng": -0.0764
  },
  {
    "name": "Longlands Farm (Mickleton) WBS",
    "w3wUrl": "https://what3words.com/agree.asking.swerving",
    "postalCode": "GL55 6LU",
    "region": "Thames Valley",
    "subRegion": "Thames Valley West",
    "assetCount": 2,
    "lat": 52.0267,
    "lng": -1.7564
  },
  {
    "name": "Lyneham Vastern WBS",
    "w3wUrl": "https://what3words.com/synthetic.exonerate.keepers",
    "postalCode": "SN4 7PD",
    "region": "Thames Valley",
    "subRegion": "Thames Valley West",
    "assetCount": 2,
    "lat": 51.5267,
    "lng": -1.8364
  },
  {
    "name": "Merton Abbey WTW; TWRM Pump Out SFT",
    "w3wUrl": "https://what3words.com/liability.tones.socket",
    "postalCode": "SW19 2EB",
    "region": "London",
    "subRegion": "South East London",
    "assetCount": 6,
    "lat": 51.4121,
    "lng": -0.1864
  },
  {
    "name": "Mill End Road (High Wycombe) WBS",
    "w3wUrl": "https://what3words.com/mole.judges.active",
    "postalCode": "HP12 4AZ",
    "region": "Thames Valley",
    "subRegion": "Thames Valley East",
    "assetCount": 2,
    "lat": 51.6267,
    "lng": -0.7364
  },
  {
    "name": "Milton WBS",
    "w3wUrl": "https://what3words.com/strikers.typically.wake",
    "postalCode": "OX15 4HG",
    "region": "Thames Valley",
    "subRegion": "Thames Valley West",
    "assetCount": 2,
    "lat": 52.0267,
    "lng": -1.5564
  },
  {
    "name": "Netley Mill (Shere) WTW",
    "w3wUrl": "https://what3words.com/sadly.snake.soft",
    "postalCode": "GU5 9HA",
    "region": "Thames Valley",
    "subRegion": "Guildford & SWS",
    "assetCount": 2,
    "lat": 51.2267,
    "lng": -0.5164
  },
  {
    "name": "Nettlebed B RES & WBS",
    "w3wUrl": "https://what3words.com/areas.tilting.venturing",
    "postalCode": "RG9 5AU",
    "region": "Thames Valley",
    "subRegion": "Thames Valley West",
    "assetCount": 2,
    "lat": 51.5621,
    "lng": -0.9964
  },
  {
    "name": "Nineveh (Mickleton) WBS",
    "w3wUrl": "https://what3words.com/evening.debut.watchdogs",
    "postalCode": "GL55 6PY",
    "region": "Thames Valley",
    "subRegion": "Thames Valley West",
    "assetCount": 2,
    "lat": 52.0394,
    "lng": -1.7864
  },
  {
    "name": "North Orpington WTW",
    "w3wUrl": "https://what3words.com/olive.drums.neon",
    "postalCode": "BR5 2BY",
    "region": "London",
    "subRegion": "South East London",
    "assetCount": 7,
    "lat": 51.3894,
    "lng": 0.1064
  },
  {
    "name": "New River Head WBS",
    "w3wUrl": "https://what3words.com/juices.tried.credit",
    "postalCode": "EC1R 1XU",
    "region": "London",
    "subRegion": "Abstraction and Ring Main",
    "assetCount": 2,
    "lat": 51.5294,
    "lng": -0.1064
  },
  {
    "name": "Pangbourne WTW",
    "w3wUrl": "https://what3words.com/encroach.kick.warrior",
    "postalCode": "RG8 7AY",
    "region": "Thames Valley",
    "subRegion": "Thames Valley East",
    "assetCount": 5,
    "lat": 51.4894,
    "lng": -1.0864
  },
  {
    "name": "Pann Mill (High Wycombe) WTW",
    "w3wUrl": "https://what3words.com/party.popped.firm",
    "postalCode": "HP11 1N",
    "region": "Thames Valley",
    "subRegion": "Thames Valley East",
    "assetCount": 2,
    "lat": 51.6294,
    "lng": -0.7464
  },
  {
    "name": "Pewley (Guildford) RES & WBS",
    "w3wUrl": "https://what3words.com/crowned.notice.falls",
    "postalCode": "GU1 3PU",
    "region": "Thames Valley",
    "subRegion": "Guildford & SWS",
    "assetCount": 2,
    "lat": 51.2394,
    "lng": -0.5764
  },
  {
    "name": "Portobello (Lewknor) WBS",
    "w3wUrl": "https://what3words.com/hoped.unfit.slate",
    "postalCode": "OX49 5RT",
    "region": "Thames Valley",
    "subRegion": "Thames Valley East",
    "assetCount": 2,
    "lat": 51.6621,
    "lng": -1.0164
  },
  {
    "name": "Preston WBS",
    "w3wUrl": "https://what3words.com/blank.acrobat.huddling",
    "postalCode": "GL7 5PR",
    "region": "Thames Valley",
    "subRegion": "Thames Valley West",
    "assetCount": 3,
    "lat": 51.7621,
    "lng": -1.9364
  },
  {
    "name": "Ringsbury Close (Purton) WBS",
    "w3wUrl": "reading.reverted.sketching",
    "postalCode": "SN5 4DF",
    "region": "Thames Valley",
    "subRegion": "Thames Valley West",
    "assetCount": 3,
    "lat": 51.5894,
    "lng": -1.8764
  },
  {
    "name": "Radnage WTW",
    "w3wUrl": "https://what3words.com/landlady.pillow.justifies",
    "postalCode": "HP14 4EQ",
    "region": "Thames Valley",
    "subRegion": "Thames Valley East",
    "assetCount": 3,
    "lat": 51.6767,
    "lng": -0.8564
  },
  {
    "name": "Rapsgate RES & WBS",
    "w3wUrl": "https://what3words.com/merely.princes.spruced",
    "postalCode": "GL7 7EN",
    "region": "Thames Valley",
    "subRegion": "Thames Valley West",
    "assetCount": 2,
    "lat": 51.7267,
    "lng": -2.0164
  },
  {
    "name": "Raynes Park TWRM Shaft & WBS",
    "w3wUrl": "https://what3words.com/pulse.brush.trunk",
    "postalCode": "SW20 0AX",
    "region": "London",
    "subRegion": "Abstraction and Ring Main",
    "assetCount": 3,
    "lat": 51.4094,
    "lng": -0.2264
  },
  {
    "name": "Rollright WBS",
    "w3wUrl": "https://what3words.com/blackouts.sitting.ribs",
    "postalCode": "OX7 5RE",
    "region": "Thames Valley",
    "subRegion": "Thames Valley West",
    "assetCount": 3,
    "lat": 51.9767,
    "lng": -1.5664
  },
  {
    "name": "Sezincote RES & WBS",
    "w3wUrl": "https://what3words.com/cages.highlighted.pampering",
    "postalCode": "GL56 9TB",
    "region": "Thames Valley",
    "subRegion": "Thames Valley West",
    "assetCount": 4,
    "lat": 51.9621,
    "lng": -1.7564
  },
  {
    "name": "Southgate WBS",
    "w3wUrl": "https://what3words.com/silly.lively.adopt",
    "postalCode": "N14 4AX",
    "region": "London",
    "subRegion": "North East London",
    "assetCount": 4,
    "lat": 51.6321,
    "lng": -0.1264
  },
  {
    "name": "Sheafhouse (Blockley) WTW",
    "w3wUrl": "https://what3words.com/campus.plunge.downward",
    "postalCode": "GL56 9DY",
    "region": "Thames Valley",
    "subRegion": "Thames Valley West",
    "assetCount": 4,
    "lat": 51.9894,
    "lng": -1.7664
  },
  {
    "name": "Sheeplands (Wargrave) WTW",
    "w3wUrl": "https://what3words.com/rinses.headliner.become",
    "postalCode": "RG10 8DJ",
    "region": "Thames Valley",
    "subRegion": "Thames Valley East",
    "assetCount": 8,
    "lat": 51.5021,
    "lng": -0.8664
  },
  {
    "name": "Shenington RES",
    "w3wUrl": "https://what3words.com/modifies.forest.exporters",
    "postalCode": "OX15 6NW",
    "region": "Thames Valley",
    "subRegion": "Thames Valley West",
    "assetCount": 2,
    "lat": 52.0567,
    "lng": -1.4564
  },
  {
    "name": "Shooters Hill (Plumstead) Tower",
    "w3wUrl": "https://what3words.com/copper.item.codes",
    "postalCode": "SE18 3DH",
    "region": "London",
    "subRegion": "South East London",
    "assetCount": 3,
    "lat": 51.4767,
    "lng": 0.0864
  },
  {
    "name": "Sindlesham WBS",
    "w3wUrl": "https://what3words.com/extra.leave.senior",
    "postalCode": "RG6 3UN",
    "region": "Thames Valley",
    "subRegion": "Thames Valley East",
    "assetCount": 2,
    "lat": 51.4267,
    "lng": -0.8964
  },
  {
    "name": "Speen WTW",
    "w3wUrl": "https://what3words.com/corner.films.snacks",
    "postalCode": "RG14 1RT",
    "region": "Thames Valley",
    "subRegion": "Thames Valley East",
    "assetCount": 4,
    "lat": 51.4021,
    "lng": -1.3464
  },
  {
    "name": "St Leonards (Windsor) RES & WBS",
    "w3wUrl": "https://what3words.com/calms.fans.snows",
    "postalCode": "SL4 4AP",
    "region": "Thames Valley",
    "subRegion": "Thames Valley East",
    "assetCount": 4,
    "lat": 51.4394,
    "lng": -0.6264
  },
  {
    "name": "Stockcross WBS",
    "w3wUrl": "https://what3words.com/taker.keys.brush",
    "postalCode": "RG20 8JU",
    "region": "Thames Valley",
    "subRegion": "Thames Valley East",
    "assetCount": 2,
    "lat": 51.4267,
    "lng": -1.3664
  },
  {
    "name": "Stokewood (Hedgerley) RES & WBS",
    "w3wUrl": "https://what3words.com/pure.only.grabs",
    "postalCode": "SL2 4AS",
    "region": "Thames Valley",
    "subRegion": "Thames Valley East",
    "assetCount": 3,
    "lat": 51.5621,
    "lng": -0.5964
  },
  {
    "name": "Stoke Newington TWRM Pump Out Shaft",
    "w3wUrl": "https://what3words.com/coach.after.goad",
    "postalCode": "N4",
    "region": "London",
    "subRegion": "Abstraction and Ring Main",
    "assetCount": 6,
    "lat": 51.5583,
    "lng": -0.0909
  },
  {
    "name": "Stokenchurch RES & WBS",
    "w3wUrl": "https://what3words.com/upholding.speaker.slipping",
    "postalCode": "HP14 3YN",
    "region": "Thames Valley",
    "subRegion": "Thames Valley East",
    "assetCount": 2,
    "lat": 51.6567,
    "lng": -0.8964
  },
  {
    "name": "Stowell Park (Northleach) RES & WBS",
    "w3wUrl": "https://what3words.com/resurgent.crate.primary",
    "postalCode": "GL54 3QG",
    "region": "Thames Valley",
    "subRegion": "Thames Valley West",
    "assetCount": 7,
    "lat": 51.8267,
    "lng": -1.8664
  },
  {
    "name": "St Peters Hill (Caversham) WBS",
    "w3wUrl": "https://what3words.com/author.swan.sorters",
    "postalCode": "RG4 7AJ",
    "region": "Thames Valley",
    "subRegion": "Thames Valley East",
    "assetCount": 1,
    "lat": 51.4621,
    "lng": -0.9664
  },
  {
    "name": "Sunnydown (Guildford) WBS",
    "w3wUrl": "https://what3words.com/starts.feared.loaf",
    "postalCode": "GU2 7RL",
    "region": "Thames Valley",
    "subRegion": "Guildford & SWS",
    "assetCount": 2,
    "lat": 51.2621,
    "lng": -0.6064
  },
  {
    "name": "Swanborough (Highworth) WBS",
    "w3wUrl": "https://what3words.com/outsiders.defected.fingernails",
    "postalCode": "SN6 7RN",
    "region": "Thames Valley",
    "subRegion": "Thames Valley West",
    "assetCount": 3,
    "lat": 51.6394,
    "lng": -1.7164
  },
  {
    "name": "Swinford WTW",
    "w3wUrl": "https://what3words.com/paddlers.herbs.remover",
    "postalCode": "OX29 4BZ",
    "region": "Thames Valley",
    "subRegion": "Thames Valley West",
    "assetCount": 5,
    "lat": 51.7621,
    "lng": -1.4864
  },
  {
    "name": "Syreford (Andoversford) WTW",
    "w3wUrl": "https://what3words.com/rear.boarding.cosmic",
    "postalCode": "GL54 5SJ",
    "region": "Thames Valley",
    "subRegion": "Thames Valley West",
    "assetCount": 3,
    "lat": 51.8767,
    "lng": -1.9164
  },
  {
    "name": "Tadley Tower & WBS",
    "w3wUrl": "https://what3words.com/outdoors.region.doubt",
    "postalCode": "RG7 8LA",
    "region": "Thames Valley",
    "subRegion": "Thames Valley East",
    "assetCount": 2,
    "lat": 51.3494,
    "lng": -1.1264
  },
  {
    "name": "Tilehurst RES & WBS & Tower",
    "w3wUrl": "https://what3words.com/sample.third.visual",
    "postalCode": "RG3 5DR",
    "region": "Thames Valley",
    "subRegion": "Thames Valley East",
    "assetCount": 2,
    "lat": 51.4621,
    "lng": -1.0264
  },
  {
    "name": "Idovers Drive (Toothill) WBS",
    "w3wUrl": "https://what3words.com/formal.couches.darker",
    "postalCode": "SN5 8DU",
    "region": "Thames Valley",
    "subRegion": "Thames Valley West",
    "assetCount": 3,
    "lat": 51.5767,
    "lng": -1.7864
  },
  {
    "name": "Toys Hill (Brasted) WBS",
    "w3wUrl": "https://what3words.com/scarf.cones.stays",
    "postalCode": "TN16 1LR",
    "region": "London",
    "subRegion": "South East London",
    "assetCount": 2,
    "lat": 51.2767,
    "lng": 0.1164
  },
  {
    "name": "Ufton Nervet WTW",
    "w3wUrl": "https://what3words.com/tend.squabbles.magnetic",
    "postalCode": "RG7 4HQ",
    "region": "Thames Valley",
    "subRegion": "Thames Valley East",
    "assetCount": 3,
    "lat": 51.3894,
    "lng": -1.0664
  },
  {
    "name": "Upshire (Waltham Abbey) WBS",
    "w3wUrl": "https://what3words.com/played.foal.guilty",
    "postalCode": "EN9 1NP",
    "region": "London",
    "subRegion": "North East London",
    "assetCount": 3,
    "lat": 51.6894,
    "lng": 0.0164
  },
  {
    "name": "Upper Slaughter RES & WBS",
    "w3wUrl": "https://what3words.com/storybook.data.mailboxes",
    "postalCode": "GL54 2JJ",
    "region": "Thames Valley",
    "subRegion": "Thames Valley West",
    "assetCount": 2,
    "lat": 51.9021,
    "lng": -1.7664
  },
  {
    "name": "Upper Swell WTW",
    "w3wUrl": "https://what3words.com/submit.ombudsman.vows",
    "postalCode": "GL54 1EW",
    "region": "Thames Valley",
    "subRegion": "Thames Valley West",
    "assetCount": 4,
    "lat": 51.9267,
    "lng": -1.7564
  },
  {
    "name": "Wainhill (Chinnor) WBS",
    "w3wUrl": "https://what3words.com/ownership.overture.twitching",
    "postalCode": "OX39 4AB",
    "region": "Thames Valley",
    "subRegion": "Thames Valley East",
    "assetCount": 2,
    "lat": 51.6894,
    "lng": -0.9364
  },
  {
    "name": "Waltham Abbey WTW",
    "w3wUrl": "https://what3words.com/pill.decks.curvy",
    "postalCode": "EN9 1ES",
    "region": "London",
    "subRegion": "North East London",
    "assetCount": 2,
    "lat": 51.6867,
    "lng": -0.0064
  },
  {
    "name": "Walton-on-Thames WTW",
    "w3wUrl": "https://what3words.com/crisp.power.punch",
    "postalCode": "KT12 2EG",
    "region": "London",
    "subRegion": "South West London",
    "assetCount": 4,
    "lat": 51.3894,
    "lng": -0.4164
  },
  {
    "name": "White Barn (Boars Hill) WBS",
    "w3wUrl": "https://what3words.com/digit.loser.sadly",
    "postalCode": "OX1 5HN",
    "region": "Thames Valley",
    "subRegion": "Thames Valley West",
    "assetCount": 2,
    "lat": 51.7267,
    "lng": -1.2864
  },
  {
    "name": "Well Hall (Eltham) WBS",
    "w3wUrl": "https://what3words.com/coins.dust.earth",
    "postalCode": "SE9 6UB",
    "region": "London",
    "subRegion": "South East London",
    "assetCount": 6,
    "lat": 51.4521,
    "lng": 0.0664
  },
  {
    "name": "Westerham Hill WTW & RES",
    "w3wUrl": "https://what3words.com/vibe.rare.badge",
    "postalCode": "TN16 2EL",
    "region": "London",
    "subRegion": "South East London",
    "assetCount": 2,
    "lat": 51.2621,
    "lng": 0.0664
  },
  {
    "name": "Whitefield A RES & WBS",
    "w3wUrl": "https://what3words.com/sparkles.leaned.dips",
    "postalCode": "SN4 0JF",
    "region": "Thames Valley",
    "subRegion": "Thames Valley West",
    "assetCount": 4,
    "lat": 51.5621,
    "lng": -1.8164
  },
  {
    "name": "Whiteshoots RES & WBS",
    "w3wUrl": "https://what3words.com/homelands.replying.unpainted",
    "postalCode": "GL54 2LA",
    "region": "Thames Valley",
    "subRegion": "Thames Valley West",
    "assetCount": 2,
    "lat": 51.8894,
    "lng": -1.7864
  },
  {
    "name": "Wickham RES & WBS",
    "w3wUrl": "https://what3words.com/coconuts.tummy.airless",
    "postalCode": "RG20 8PS",
    "region": "Thames Valley",
    "subRegion": "Thames Valley East",
    "assetCount": 2,
    "lat": 51.4767,
    "lng": -1.3564
  },
  {
    "name": "Wigginton RES & WBS",
    "w3wUrl": "https://what3words.com/conveying.line.composts",
    "postalCode": "OX15 4LQ",
    "region": "Thames Valley",
    "subRegion": "Thames Valley West",
    "assetCount": 2,
    "lat": 52.0267,
    "lng": -1.5264
  },
  {
    "name": "Willesden RES & WBS",
    "w3wUrl": "https://what3words.com/pretty.spell.traps",
    "postalCode": "NW10",
    "region": "London",
    "subRegion": "North East London",
    "assetCount": 2,
    "lat": 51.5362,
    "lng": -0.2417
  },
  {
    "name": "Witheridge Hill WTW",
    "w3wUrl": "https://what3words.com/enjoys.enforced.broached",
    "postalCode": "RG9 5PJ",
    "region": "Thames Valley",
    "subRegion": "Thames Valley West",
    "assetCount": 2,
    "lat": 51.5394,
    "lng": -0.9864
  },
  {
    "name": "Woodcote RES & WBS",
    "w3wUrl": "https://what3words.com/ramming.mermaids.observers",
    "postalCode": "RG8 0RH",
    "region": "Thames Valley",
    "subRegion": "Thames Valley West",
    "assetCount": 4,
    "lat": 51.5267,
    "lng": -1.0564
  },
  {
    "name": "West Wickham RES & WBS",
    "w3wUrl": "https://what3words.com/royal.priced.tree",
    "postalCode": "BR2 6AR",
    "region": "London",
    "subRegion": "South East London",
    "assetCount": 1,
    "lat": 51.3621,
    "lng": -0.0164
  },
  {
    "name": "Addington Res & WBS",
    "w3wUrl": "https://what3words.com/test.advice.actors",
    "postalCode": "CR0 5RE",
    "region": "London",
    "subRegion": "South East London",
    "assetCount": 3,
    "lat": 51.3521,
    "lng": -0.0364
  },
  {
    "name": "Aldbury WBS",
    "w3wUrl": "https://what3words.com/afflicted.levels.unroll",
    "postalCode": "HP23 5RU",
    "region": "Thames Valley",
    "subRegion": "Thames Valley East",
    "assetCount": 2,
    "lat": 51.8021,
    "lng": -0.6164
  }
]
